[
  {
    "id": "1",
    "name": "鶴岡八幡宮",
    "address": "神奈川県鎌倉市雪ノ下2-1-31",
    "lat": 35.3258,
    "lng": 139.5556,
    "description": "鎌倉を代表する神社"
  },
  {
    "id": "2",
    "name": "長谷寺",
    "address": "神奈川県鎌倉市長谷3-11-2",
    "lat": 35.3128,
    "lng": 139.5358,
    "description": "観音菩薩で有名な古刹"
  },
  {
    "id": "3",
    "name": "高徳院（鎌倉大仏）",
    "address": "神奈川県鎌倉市長谷4-2-28",
    "lat": 35.3167,
    "lng": 139.5357,
    "description": "鎌倉の象徴である大仏様"
  },
  {
    "id": "4",
    "name": "建長寺",
    "address": "神奈川県鎌倉市山ノ内8",
    "lat": 35.3378,
    "lng": 139.5498,
    "description": "鎌倉五山第一位の禅寺"
  },
  {
    "id": "5",
    "name": "円覚寺",
    "address": "神奈川県鎌倉市山ノ内409",
    "lat": 35.3379,
    "lng": 139.5481,
    "description": "臨済宗円覚寺派の大本山"
  },
  {
    "id": "1755303066133",
    "name": "鎌倉能舞台",
    "address": "日本、〒248-0016 神奈川県鎌倉市長谷３丁目５−１３",
    "lat": 35.314824,
    "lng": 139.532591,
    "description": "オープニングセレモニー"
  },
  {
    "id": "1755303689325",
    "name": "鎌倉市生涯学習センター",
    "address": "〒248-0006 神奈川県鎌倉市小町１丁目１０−５",
    "lat": 35.31839253908849,
    "lng": 139.55223069420123,
    "description": "35.31839253908849, 139.55223069420123"
  },
  {
    "id": "1755304204215",
    "name": "NIHO",
    "address": " 〒248-0012 鎌倉市御成町11-12 2F",
    "lat": 35.31856270702525,
    "lng": 139.549597,
    "description": "35.31856270702525, 139.549597"
  },
  {
    "id": "1755306714869",
    "name": "ＫＫＲ鎌倉わかみや",
    "address": "神奈川県鎌倉市由比ガ浜４丁目６−１３",
    "lat": 35.31118474357768,
    "lng": 139.54380233344202,
    "description": "35.31118474357768, 139.54380233344202"
  }
]